City_ID,City,Lat,Lng,Max Temp,Humidity,Cloudiness,Wind Speed,Country,Date
0,olovyannaya,50.95,115.5667,16.97,89,100,3.34,RU,1691633826
1,puerto natales,-51.7236,-72.4875,2.09,94,77,1.52,CL,1691633826
2,margaret river,-33.95,115.0667,11.08,83,100,1.48,AU,1691633826
3,port-aux-francais,-49.35,70.2167,3.38,84,100,10.57,TF,1691633827
4,adamstown,-25.066,-130.1015,19.28,58,95,9.49,PN,1691633827
5,hithadhoo,-0.6,73.0833,27.1,75,77,2.35,MV,1691633827
6,baley,51.6,116.6333,16.3,77,100,3.73,RU,1691633827
7,wailua homesteads,22.0669,-159.378,31.24,75,100,9.26,US,1691633827
8,hawaiian paradise park,19.5933,-154.9731,27.24,71,40,3.6,US,1691633620
9,grytviken,-54.2811,-36.5092,-4.95,95,93,1.87,GS,1691633827
10,toyooka,35.5333,134.8333,35.03,46,75,7.2,JP,1691633828
11,minas de marcona,-15.2119,-75.1103,12.85,86,23,4.85,PE,1691633828
12,pisco,-13.7,-76.2167,19.03,77,20,6.17,PE,1691633828
13,okhotsk,59.3833,143.3,17.96,62,16,3.94,RU,1691633828
14,kodiak,57.79,-152.4072,12.73,88,100,2.57,US,1691633828
15,kapa'a,22.0752,-159.319,31.99,75,100,9.26,US,1691633828
16,bilibino,68.0546,166.4372,16.92,40,95,3.0,RU,1691633828
17,college,64.8569,-147.8028,21.99,72,75,3.09,US,1691633828
18,port mathurin,-19.6833,63.4167,22.3,74,7,5.93,MU,1691633829
19,stanley,54.868,-1.6985,16.55,94,40,1.54,GB,1691633829
20,turpan,42.9333,89.1667,35.15,21,4,0.82,CN,1691633829
21,bhaisa,19.1,77.9667,25.16,80,39,4.2,IN,1691633829
22,soure,-0.7167,-48.5233,26.33,83,33,6.13,BR,1691633587
23,touros,-5.1989,-35.4608,23.89,83,56,5.97,BR,1691633829
24,thompson,55.7435,-97.8558,15.09,77,20,0.0,CA,1691633829
25,jamestown,42.097,-79.2353,20.4,76,0,1.54,US,1691633829
26,whitehorse,60.7161,-135.0538,21.72,38,75,3.09,CA,1691633829
27,leh,34.1667,77.5833,18.29,38,4,1.76,IN,1691633830
28,usogorsk,63.4106,48.6872,16.77,79,20,0.05,RU,1691633568
29,blackmans bay,-43.0167,147.3167,15.07,76,99,2.89,AU,1691633830
30,savalou,7.9281,1.9756,21.81,95,100,3.56,BJ,1691633830
31,vorgashor,67.5833,63.95,11.23,71,76,4.91,RU,1691633830
32,bandon,51.7469,-8.7425,15.77,96,69,5.91,IE,1691633672
33,edinburgh of the seven seas,-37.0676,-12.3116,10.71,53,69,11.07,SH,1691633830
34,andapa,-14.65,49.65,15.28,96,44,1.43,MG,1691633830
35,iqaluit,63.7506,-68.5145,5.85,100,100,4.63,CA,1691633830
36,carnarvon,-24.8667,113.6333,22.65,56,2,1.95,AU,1691633532
37,sola,-13.8833,167.55,22.88,84,100,11.64,VU,1691633561
38,ust-nera,64.5667,143.2,20.73,45,6,1.5,RU,1691633831
39,albany,42.6001,-73.9662,20.45,82,1,0.89,US,1691633831
40,west island,-12.1568,96.8225,25.99,78,75,5.66,CC,1691633831
41,lebu,-37.6167,-73.65,11.46,88,56,5.85,CL,1691633831
42,carbonear,47.7332,-53.2148,13.47,90,100,6.44,CA,1691633831
43,marsa alam,25.0757,34.8918,31.08,45,0,2.86,EG,1691633831
44,mahibadhoo,3.7833,72.9667,27.67,78,100,5.61,MV,1691633831
45,tiksi,71.6872,128.8694,20.98,39,37,3.07,RU,1691633831
46,enewetak,11.3474,162.3373,28.75,75,74,6.35,MH,1691633831
47,waitangi,-43.9535,-176.5597,11.57,79,5,0.89,NZ,1691633832
48,bethel,41.3712,-73.414,24.2,73,0,3.6,US,1691633683
49,taupo,-38.6833,176.0833,7.49,85,100,3.83,NZ,1691633832
50,aasiaat,68.7098,-52.8699,3.13,90,90,4.44,GL,1691633832
51,yuzhno-kurilsk,44.0306,145.8556,21.86,91,100,5.77,RU,1691633832
52,askino,56.0901,56.5783,16.76,79,84,1.93,RU,1691633832
53,erdenet,49.0333,104.0833,19.71,76,3,1.95,MN,1691633832
54,coxim,-18.5067,-54.76,27.05,38,0,0.74,BR,1691633832
55,kingston,17.997,-76.7936,28.47,90,14,0.73,JM,1691633832
56,sitka,57.0531,-135.33,15.94,82,100,4.63,US,1691633752
57,bardai,11.65,7.2333,21.06,94,98,3.62,NG,1691633832
58,luderitz,-26.6481,15.1594,23.23,40,100,4.63,NA,1691633832
59,trairi,-3.2778,-39.2689,24.66,85,27,3.64,BR,1691633833
60,qarauyl,48.9451,79.255,24.1,48,12,6.41,KZ,1691633833
61,fort mcmurray,56.7268,-111.381,13.77,94,100,4.12,CA,1691633726
62,ushuaia,-54.8,-68.3,4.81,70,40,1.03,AR,1691633823
63,magistral'nyy,56.1725,107.4458,17.16,98,100,1.23,RU,1691633833
64,olonkinbyen,70.9221,-8.7187,6.58,98,100,3.64,SJ,1691633833
65,lompoc,34.6391,-120.4579,22.23,82,100,3.09,US,1691633833
66,selfoss,63.9331,-20.9971,11.58,75,100,2.55,IS,1691633833
67,kertih,4.5141,103.4483,30.01,79,20,0.0,MY,1691633833
68,sao jose da coroa grande,-8.8978,-35.1478,23.75,77,6,4.47,BR,1691633834
69,badger,64.8,-147.5333,21.95,74,75,3.09,US,1691633834
70,ostersund,63.1792,14.6357,9.25,100,48,4.12,SE,1691633834
71,kargasok,59.0556,80.8572,10.84,97,100,3.99,RU,1691633834
72,rizokarpaso,35.6,34.375,25.88,79,17,1.58,CY,1691633834
73,la sarre,48.8002,-79.1996,13.22,94,85,2.63,CA,1691633834
74,gadzhiyevo,69.2551,33.3362,17.33,77,0,3.55,RU,1691633834
75,ancud,-41.8697,-73.8203,9.74,89,100,7.26,CL,1691633834
76,port elizabeth,-33.918,25.5701,13.16,94,0,3.09,ZA,1691633834
77,aleg,17.0481,-13.9209,29.5,48,12,7.45,MR,1691633835
78,smithers,54.7804,-127.1743,18.18,45,75,4.63,CA,1691633835
79,rio grande,-32.035,-52.0986,15.53,94,100,7.84,BR,1691633820
80,stawell,-37.05,142.7667,12.05,66,41,5.41,AU,1691633835
81,cidreira,-30.1811,-50.2056,16.45,95,100,8.21,BR,1691633835
82,kuala terengganu,5.3302,103.1408,28.97,79,20,3.09,MY,1691633835
83,labytnangi,66.6572,66.4183,13.67,64,37,2.68,RU,1691633836
84,longyearbyen,78.2186,15.6401,9.91,62,0,7.2,SJ,1691633836
85,rabaul,-4.1967,152.1721,28.78,67,91,8.83,PG,1691633836
86,dunedin,-45.8742,170.5036,8.78,53,68,5.36,NZ,1691633836
87,yellowknife,62.456,-114.3525,21.29,43,75,4.92,CA,1691633836
88,puerto deseado,-47.7503,-65.8938,9.6,76,100,4.63,AR,1691633836
89,san angelo,31.4638,-100.437,38.27,27,0,5.14,US,1691633551
90,lazaro cardenas,17.9583,-102.2,28.58,79,100,0.27,MX,1691633836
91,colon,9.3592,-79.9014,24.95,81,100,3.13,PA,1691633837
92,ceerigaabo,10.6162,47.368,16.36,68,41,8.08,SO,1691633837
93,nyurba,63.2842,118.3319,24.3,47,22,4.57,RU,1691633837
94,westport,41.1415,-73.3579,25.99,69,0,2.57,US,1691633556
95,san martin,-33.081,-68.4681,10.3,49,64,3.45,AR,1691633837
96,isafjordur,66.0755,-23.124,7.09,81,48,3.27,IS,1691633837
97,fale old settlement,-9.3852,-171.2468,28.02,79,25,7.03,TK,1691633837
98,kalmunai,7.4167,81.8167,27.22,76,100,2.67,LK,1691633837
99,fortuna,40.5982,-124.1573,20.52,87,100,4.63,US,1691633822
100,yerofey pavlovich,53.9667,121.9667,23.98,45,21,3.04,RU,1691633837
101,iskateley,67.6803,53.1512,11.94,81,0,2.57,RU,1691633838
102,sechura,-5.5569,-80.8222,22.23,77,10,6.7,PE,1691633838
103,daru,-9.0763,143.2092,24.49,83,100,6.86,PG,1691633838
104,kangding,30.0513,101.9603,20.51,77,100,1.06,CN,1691633838
105,nova sintra,14.8667,-24.7167,22.78,73,89,7.64,CV,1691633838
106,sao gabriel da cachoeira,-0.1303,-67.0892,24.0,88,57,0.67,BR,1691633838
107,katabu,-4.9333,122.5167,29.95,52,83,3.89,ID,1691633838
108,utrik,11.2278,169.8474,28.3,71,64,5.1,MH,1691633838
109,tindouf,27.6711,-8.1474,34.25,11,0,3.09,DZ,1691633838
110,qaqortoq,60.7167,-46.0333,6.26,83,10,1.11,GL,1691633838
111,namibe,-15.1961,12.1522,15.93,90,20,3.83,AO,1691633838
112,papatowai,-46.5619,169.4708,5.66,73,40,3.53,NZ,1691633839
113,chonchi,-42.6128,-73.8092,8.56,91,96,3.99,CL,1691633839
114,poyarkovo,49.6,128.6833,19.1,86,100,3.49,RU,1691633839
115,hammerfest,70.6634,23.6821,21.25,64,75,1.03,NO,1691633839
116,kudahuvadhoo,2.6708,72.8944,27.01,79,100,4.5,MV,1691633839
117,satun,6.8333,100.0,29.0,77,83,1.11,TH,1691633839
118,luanda,-8.8368,13.2343,19.0,88,56,1.54,AO,1691633839
119,trenggalek,-8.05,111.7167,28.19,100,23,2.67,ID,1691633839
120,san antonio de pale,-1.4014,5.6325,23.62,79,96,5.38,GQ,1691633839
121,al bayda,32.7627,21.7551,20.28,80,59,5.21,LY,1691633840
122,khovd,48.0056,91.6419,18.24,62,7,2.09,MN,1691633840
123,tazovsky,67.4667,78.7,7.73,87,100,9.43,RU,1691633840
124,hpa-an,16.8906,97.6333,26.32,88,99,1.97,MM,1691633840
125,masterton,-40.9597,175.6575,7.16,97,100,1.58,NZ,1691633840
126,salobrena,36.7428,-3.5872,32.48,69,0,1.45,ES,1691633840
127,langres,47.8333,5.3333,10.11,92,0,1.43,FR,1691633841
128,kovdor,67.5662,30.4758,15.61,85,95,1.34,RU,1691633841
129,udachny,66.4167,112.4,18.03,48,88,7.34,RU,1691633841
130,fort-shevchenko,44.5086,50.263,27.69,67,0,2.71,KZ,1691633841
131,mek'ele,13.4967,39.4753,16.63,81,98,0.72,ET,1691633841
132,mabaruma,8.2,-59.7833,24.51,94,44,2.01,GY,1691633841
133,bredasdorp,-34.5322,20.0403,9.88,89,1,1.76,ZA,1691633841
134,saudarkrokur,65.7461,-19.6394,5.85,86,66,4.34,IS,1691633841
135,lys'va,58.1086,57.8053,14.36,80,62,2.07,RU,1691633841
136,ust'-kut,56.7938,105.7672,17.42,98,100,2.16,RU,1691633842
137,vernon,50.2581,-119.2691,26.45,36,46,4.02,CA,1691633842
138,christchurch,-43.5333,172.6333,8.04,64,100,8.75,NZ,1691633608
139,konduga,11.6558,13.4213,21.84,93,100,3.08,NG,1691633842
140,natal,-5.795,-35.2094,23.36,94,40,3.6,BR,1691633624
141,peniche,39.3558,-9.3811,20.06,97,4,1.82,PT,1691633842
142,atherton,53.5237,-2.4935,18.45,91,100,1.24,GB,1691633842
143,invercargill,-46.4,168.35,6.68,76,22,1.96,NZ,1691633842
144,kupang,-10.1667,123.5833,28.51,55,44,3.83,ID,1691633842
145,priob'ye,62.5206,65.5964,13.57,67,7,4.55,RU,1691633842
146,malango,-2.9627,119.9001,25.39,67,89,1.4,ID,1691633843
147,saipan,15.1355,145.701,26.39,89,100,6.69,MP,1691633843
148,ilulissat,69.2167,-51.1,6.01,93,100,2.06,GL,1691633843
149,guozhen,34.3659,107.359,29.56,74,37,2.27,CN,1691633843
150,dunay,42.8803,132.3375,19.87,98,100,0.9,RU,1691633843
151,ribeira grande,38.5167,-28.7,21.54,86,100,2.68,PT,1691633843
152,zaysan,47.4667,84.8667,22.84,50,0,0.6,KZ,1691633843
153,balaipungut,1.05,101.2833,26.59,84,79,1.37,ID,1691633843
154,walvis bay,-22.9575,14.5053,13.38,85,92,3.18,NA,1691633844
155,raduzhnyy,62.0961,77.475,10.55,96,100,6.02,RU,1691633844
156,nemuro,43.3236,145.575,20.52,95,100,6.83,JP,1691633844
157,roma,43.2128,-75.4557,20.4,83,0,0.0,US,1691633844
158,kuvandyk,51.4781,57.3552,17.5,66,16,3.73,RU,1691633844
159,bathsheba,13.2167,-59.5167,28.34,83,40,5.14,BB,1691633844
160,wanning,18.8003,110.3967,31.6,60,72,5.23,CN,1691633844
161,lihue,21.9789,-159.3672,31.58,68,100,9.26,US,1691633844
162,punta arenas,-53.15,-70.9167,3.95,93,100,3.56,CL,1691633605
163,pudozh,61.8099,36.5345,16.33,86,51,1.57,RU,1691633845
164,alice springs,-23.7,133.8833,24.75,18,0,6.17,AU,1691633845
165,mount gambier,-37.8333,140.7667,11.88,70,100,3.69,AU,1691633845
166,macau,22.2006,113.5461,32.7,84,40,2.06,MO,1691633845
167,puquio,-14.7,-74.1333,10.69,49,13,0.46,PE,1691633845
168,le morne-rouge,14.7667,-61.1333,22.76,82,100,4.61,MQ,1691633845
169,laojunmiao,39.8333,97.7333,20.62,55,100,2.11,CN,1691633845
170,kapuskasing,49.4169,-82.4331,17.0,82,75,0.0,CA,1691633623
171,ettrick,37.2402,-77.43,26.12,82,0,0.0,US,1691633845
172,quixada,-4.9714,-39.0153,21.49,92,35,1.75,BR,1691633846
173,covington,39.0837,-84.5086,23.69,81,75,3.6,US,1691633846
174,uturoa,-16.7333,-151.4333,24.94,71,81,8.02,PF,1691633846
175,sinabang,2.4803,96.3801,25.49,87,100,1.86,ID,1691633846
176,dryden,49.7833,-92.7503,13.16,82,75,2.57,CA,1691633846
177,cotonou,6.3654,2.4183,24.99,88,75,5.66,BJ,1691633846
178,lata,40.1629,-8.3327,17.73,95,20,1.04,PT,1691633846
179,erenhot,43.6475,111.9767,27.94,38,66,6.95,CN,1691633846
180,poggiardo,40.0542,18.3791,21.04,59,47,4.91,IT,1691633847
181,howrah,22.5892,88.3103,29.0,84,75,2.57,IN,1691633847
182,ingeniero jacobacci,-41.3427,-69.5448,8.24,58,100,10.21,AR,1691633847
183,san patricio,28.017,-97.5169,30.65,77,0,8.79,US,1691633627
184,montepuez,-13.1256,38.9997,16.93,79,0,3.48,MZ,1691633847
185,rikaze,29.25,88.8833,16.68,50,75,1.32,CN,1691633847
186,okha,53.5739,142.9478,15.92,78,92,3.54,RU,1691633847
187,soto la marina,23.7667,-98.2167,28.52,77,0,7.29,MX,1691633847
188,orsha,54.5153,30.4053,12.58,74,75,2.75,BY,1691633847
189,guanica,17.9716,-66.908,29.43,73,99,5.59,PR,1691633847
190,ladybrand,-29.1945,27.4574,5.73,80,0,1.85,ZA,1691633847
191,tarariras,-34.2833,-57.6167,12.87,89,83,3.64,UY,1691633847
192,taroudant,30.4703,-8.877,33.79,20,29,3.52,MA,1691633848
193,sisimiut,66.9395,-53.6735,4.78,90,100,3.6,GL,1691633848
194,bartlesville,36.7473,-95.9808,25.21,93,0,0.45,US,1691633798
195,guiratinga,-16.3494,-53.7583,23.94,29,0,2.16,BR,1691633848
196,petropavlovsk-kamchatsky,53.0452,158.6483,22.33,49,40,3.0,RU,1691633848
197,yilan,24.757,121.753,33.36,57,35,2.37,TW,1691633848
198,vallenar,-28.5708,-70.7581,15.19,75,100,2.11,CL,1691633848
199,mugia,43.1041,-9.2179,21.06,89,91,7.6,ES,1691633848
200,afaahiti,-17.75,-149.2833,25.93,71,100,6.68,PF,1691633848
201,vadso,70.0744,29.7487,19.49,82,9,2.57,NO,1691633848
202,hotan,37.0997,79.9269,29.6,25,16,0.72,CN,1691633817
203,alaghsas,17.0187,8.0168,28.74,51,100,4.79,NE,1691633849
204,tolanaro,-25.0319,46.9987,18.19,92,17,1.68,MG,1691633849
205,lautoka,-17.6167,177.4667,26.92,74,75,5.66,FJ,1691633849
206,dongola,19.1667,30.4833,32.72,41,10,4.07,SD,1691633849
207,al ghayzah,16.2079,52.176,25.38,92,96,3.53,YE,1691633849
208,kulattur,9.0167,78.2,29.12,69,100,1.31,IN,1691633849
209,malvan,16.0667,73.4667,26.44,81,80,0.71,IN,1691633693
210,north bend,43.4065,-124.2243,25.13,83,40,5.14,US,1691633849
211,port macquarie,-31.4333,152.9167,22.72,30,67,2.1,AU,1691633849
212,enshi,30.3,109.4833,29.11,78,51,0.26,CN,1691633849
213,haiku-pauwela,20.9219,-156.3051,29.01,58,20,12.35,US,1691633850
214,puerto ayora,-0.7393,-90.3518,24.19,92,37,2.24,EC,1691633850
215,weno,7.4515,151.8468,28.35,74,88,4.07,FM,1691633850
216,siwa oasis,29.2041,25.5195,27.7,48,0,3.23,EG,1691633850
217,polyarnyy,69.1989,33.4478,17.09,78,0,3.57,RU,1691633850
218,tabas,33.5959,56.9244,29.12,23,0,1.03,IR,1691633850
219,georgetown,5.4112,100.3354,26.96,87,40,1.54,MY,1691633663
220,altinyayla,39.2725,36.751,19.6,71,0,2.2,TR,1691633850
221,colonia,50.9333,6.95,14.34,83,0,0.51,DE,1691633605
222,hermanus,-34.4187,19.2345,12.67,75,0,3.9,ZA,1691633850
223,saint-juery,43.9488,2.2103,23.06,49,74,1.79,FR,1691633851
224,ko pha ngan,9.7578,100.0291,28.38,77,83,5.84,TH,1691633851
225,dudinka,69.4058,86.1778,13.68,63,100,9.5,RU,1691633851
226,moyale,3.5167,39.0584,18.69,73,100,5.03,KE,1691633851
227,naxos,37.1056,25.3764,25.35,74,1,8.05,GR,1691633725
228,ebon,4.582,168.6964,27.9,73,100,1.59,MH,1691633851
229,santa maria del oro,25.9333,-105.3667,25.81,29,13,3.63,MX,1691633851
230,arawa,-6.2132,155.5367,26.57,90,99,2.23,PG,1691633851
231,maun,-19.9833,23.4167,13.98,51,0,5.14,BW,1691633851
232,aykhal,66.0,111.5,18.21,64,98,6.79,RU,1691633851
233,oshkosh,44.0247,-88.5426,21.21,87,100,6.17,US,1691633851
234,mejit,10.2753,170.8646,28.04,70,78,4.89,MH,1691633852
235,hasaki,35.7333,140.8333,32.22,79,100,4.55,JP,1691633852
236,mwatate,-3.5029,38.3795,16.15,94,17,1.17,KE,1691633852
237,sandnessjoen,66.0217,12.6316,15.29,76,6,4.99,NO,1691633585
238,n'zeto,-7.2312,12.8666,20.41,92,36,2.74,AO,1691633852
239,banjarmasin,-3.3244,114.591,29.08,54,100,1.68,ID,1691633852
240,saurimo,-9.6608,20.3916,16.54,36,0,2.0,AO,1691633852
241,acarau,-2.8856,-40.12,25.02,83,63,6.29,BR,1691633852
242,kingsland,30.8,-81.6898,30.96,91,91,0.89,US,1691633852
243,ola,59.5833,151.2833,21.19,54,5,2.26,RU,1691633853
244,syktyvkar,61.6764,50.8099,13.85,100,0,0.0,RU,1691633849
245,mil'kovo,55.6078,37.7956,16.86,73,84,2.9,RU,1691633853
246,am timan,11.0297,20.2827,21.06,97,100,0.95,TD,1691633853
247,crane,31.3974,-102.3501,36.08,16,44,2.13,US,1691633853
248,porto novo,6.4965,2.6036,24.9,87,100,3.56,BJ,1691633853
249,kenai,60.5544,-151.2583,15.08,90,100,2.57,US,1691633853
250,fuli,46.7217,131.1394,20.45,97,100,2.98,CN,1691633853
251,caleta de carquin,-11.0925,-77.6267,19.12,83,22,4.76,PE,1691633839
252,igarka,67.4667,86.5833,15.75,85,100,0.98,RU,1691633853
253,port alfred,-33.5906,26.891,14.54,90,0,2.68,ZA,1691633853
254,tura,25.5198,90.2201,25.2,94,100,1.0,IN,1691633853
255,bandarbeyla,9.4942,50.8122,24.6,75,100,11.11,SO,1691633854
256,pader,3.05,33.2167,19.93,83,94,1.13,UG,1691633854
257,saint-denis,48.9167,2.3333,16.75,86,0,2.57,FR,1691633854
258,takoradi,4.8845,-1.7554,24.03,85,100,4.92,GH,1691633854
259,anadyr,64.75,177.4833,14.28,66,75,5.0,RU,1691633854
260,tasqala,51.1167,50.3167,18.85,65,8,3.51,KZ,1691633854
261,nadi,-17.8,177.4167,27.0,74,75,5.66,FJ,1691633854
262,klaksvik,62.2266,-6.589,8.51,78,24,3.0,FO,1691633854
263,fruitland,38.3221,-75.6202,25.94,85,0,2.57,US,1691633854
264,harstad,68.799,16.5293,13.42,69,6,2.31,NO,1691633854
265,barra da estiva,-13.6261,-41.3269,14.71,86,0,1.65,BR,1691633854
266,kolokani,13.5728,-8.0339,25.85,69,100,3.9,ML,1691633854
267,new norfolk,-42.7826,147.0587,15.72,77,100,2.74,AU,1691633855
268,kruisfontein,-34.0033,24.7314,10.49,86,0,2.72,ZA,1691633855
269,balqash,46.8481,74.995,19.33,82,40,6.0,KZ,1691633855
270,margate,51.3813,1.3862,14.83,84,0,3.14,GB,1691633855
271,dwarka,22.2394,68.9678,27.36,83,100,9.06,IN,1691633695
272,mar del plata,-38.0023,-57.5575,12.83,95,75,4.12,AR,1691633855
273,severo-yeniseyskiy,60.3725,93.0408,16.42,62,37,2.96,RU,1691633855
274,douglas,41.3,-96.167,24.06,79,0,0.0,US,1691633792
275,novyy urgal,51.0736,132.5642,25.43,40,6,1.45,RU,1691633855
276,kimbe,-5.5502,150.1429,30.65,53,60,6.14,PG,1691633855
277,ingeniero guillermo n. juarez,-23.9,-61.85,19.22,59,3,2.74,AR,1691633855
278,yung shue wan,22.2333,114.1167,31.98,80,46,3.33,HK,1691633855
279,axim,4.8699,-2.2405,23.96,86,100,4.69,GH,1691633856
280,port saint john's,-31.6229,29.5448,16.37,87,49,3.88,ZA,1691633856
281,hamilton,39.1834,-84.5333,23.35,88,75,3.6,US,1691633617
282,huinca renanco,-34.8404,-64.3758,14.04,68,88,6.26,AR,1691633856
283,pantai remis,4.4557,100.6288,23.01,91,100,1.67,MY,1691633856
284,paracuru,-3.41,-39.0306,26.73,85,38,4.96,BR,1691633856
285,callao,-12.0667,-77.15,21.16,73,100,5.14,PE,1691633856
286,abadeh,31.1608,52.6506,20.06,35,4,2.91,IR,1691633856
287,northam,51.0333,-4.2167,15.9,85,1,4.19,GB,1691633856
288,acapulco de juarez,16.8634,-99.8901,29.9,79,100,1.54,MX,1691633856
289,livingston,55.9029,-3.5226,16.44,93,100,1.03,GB,1691633856
290,lubango,-14.9172,13.4925,14.68,39,0,1.34,AO,1691633856
291,solleftea,63.1667,17.2667,11.92,96,41,1.29,SE,1691633857
292,nogliki,51.8333,143.1667,15.24,80,100,4.53,RU,1691633857
293,tromso,69.6496,18.957,16.32,77,3,2.06,NO,1691633825
294,yeed,4.55,43.0333,23.58,63,87,8.12,SO,1691633857
295,mana,5.6592,-53.7767,25.68,89,12,5.1,GF,1691633857
296,maloye ganyushkino,46.6,49.2667,27.41,33,20,5.11,KZ,1691633857
297,rabigh,22.7986,39.0349,30.25,77,0,2.02,SA,1691633857
298,saint-pierre,-21.3393,55.4781,19.82,64,20,3.6,RE,1691633857
299,tofol,5.3248,163.0078,28.09,78,69,3.82,FM,1691633857
300,atafu village,-8.5421,-172.5159,28.02,79,36,6.49,TK,1691633857
301,aral,40.5156,81.2636,29.02,26,0,3.15,CN,1691633857
302,arteche,12.2645,125.4048,31.84,61,100,2.26,PH,1691633857
303,port blair,11.6667,92.75,29.02,84,40,4.12,IN,1691633857
304,fisterra,42.9049,-9.2629,20.97,90,79,7.0,ES,1691633858
305,selkirk,50.1436,-96.8845,17.04,80,44,3.97,CA,1691633829
306,iquique,-20.2208,-70.1431,19.02,75,59,0.51,CL,1691633764
307,blackwater,-23.5833,148.8833,23.16,63,0,3.0,AU,1691633858
308,guerrero negro,27.9769,-114.0611,22.8,80,3,7.93,MX,1691633635
309,manicore,-5.8092,-61.3003,28.15,50,57,1.14,BR,1691633858
310,al bawiti,28.3492,28.8659,24.39,60,0,2.87,EG,1691633858
311,arucas,28.1198,-15.5233,23.43,83,31,4.43,ES,1691633858
312,talara,-4.5772,-81.2719,23.42,78,40,5.86,PE,1691633843
313,condom,43.9167,0.3333,24.6,69,38,5.72,FR,1691633858
314,micoud,13.8167,-60.9,27.96,83,20,5.14,LC,1691633858
315,bodaybo,57.8506,114.1933,24.66,56,100,1.3,RU,1691633858
316,san juan del sur,11.2529,-85.8705,28.75,73,48,6.01,NI,1691633858
317,lang suan,9.9456,99.0785,27.75,76,63,1.74,TH,1691633859
318,xining,36.6167,101.7667,20.77,67,52,1.02,CN,1691633859
319,tash-kumyr,41.3461,72.2171,28.87,29,4,1.37,KG,1691633721
320,codrington,-38.2667,141.9667,11.99,74,99,6.72,AU,1691633859
321,batangafo,7.3008,18.2833,20.04,99,100,0.38,CF,1691633859
322,la mira,18.035,-102.3266,27.94,82,100,0.31,MX,1691633859
323,ovalle,-30.5983,-71.2003,16.52,76,100,2.36,CL,1691633859
324,keflavik,64.0049,-22.5624,12.24,76,0,2.57,IS,1691633777
325,shizunai-furukawacho,42.3339,142.3669,24.76,89,100,7.38,JP,1691633602
326,amos,48.5669,-78.1162,13.66,95,75,1.99,CA,1691633581
327,uvira,-3.4067,29.1458,22.69,62,18,1.3,CD,1691633774
328,coquimbo,-29.9533,-71.3436,14.85,82,0,4.12,CL,1691633653
329,priargunsk,50.3691,119.1012,21.96,57,97,3.04,RU,1691633859
330,port nelson,23.6333,-74.8333,29.47,76,58,6.85,BS,1691633859
331,praya,14.9215,-23.5087,26.3,69,20,5.14,CV,1691633860
332,labrador city,52.9463,-66.9114,11.95,94,100,2.57,CA,1691633712
333,la'ie,21.6477,-157.9253,30.98,67,7,8.84,US,1691633588
334,miyako,39.6367,141.9525,29.8,65,1,8.55,JP,1691633657
335,guaduas,5.0669,-74.595,23.69,52,85,0.9,CO,1691633860
336,le muy,43.4738,6.5645,19.48,73,0,0.0,FR,1691633860
337,ambodifotatra,-16.9833,49.85,22.1,79,48,6.39,MG,1691633860
338,santana,-0.0583,-51.1817,28.1,89,75,4.12,BR,1691633789
339,khandyga,62.6667,135.6,24.5,34,10,1.11,RU,1691633860
340,swan hill,-35.3378,143.5544,14.66,51,1,6.36,AU,1691633860
341,mount isa,-20.7333,139.5,26.87,24,8,4.12,AU,1691633730
342,st. john's,47.5649,-52.7093,13.21,93,100,6.17,CA,1691633860
343,cabo san lucas,22.8909,-109.9124,31.61,78,40,5.14,MX,1691633607
344,newton,42.337,-71.2092,24.34,75,0,2.57,US,1691633740
345,lerwick,60.1545,-1.1494,11.0,77,71,5.49,GB,1691633860
346,grand baie,-20.0182,57.5802,21.92,69,0,0.45,MU,1691633827
347,la passe,45.5549,-0.8967,22.13,61,21,2.57,FR,1691633860
348,bonthe,7.5264,-12.505,24.47,93,100,6.18,SL,1691633861
349,dakhla,23.6848,-15.958,20.47,92,21,9.2,EH,1691633861
350,la rinconada,37.4873,-5.9826,27.76,67,0,3.09,ES,1691633861
351,whitby,54.4877,-0.615,17.95,84,92,1.73,GB,1691633643
352,avarua,-21.2078,-159.775,24.03,69,40,7.2,CK,1691633721
353,tsiombe,-25.3,45.4833,18.14,92,14,3.72,MG,1691633861
354,fonte boa,-2.4959,-66.2662,25.01,82,89,1.64,BR,1691633861
355,timbuktu,16.7735,-3.0074,32.95,43,93,5.94,ML,1691633861
356,san pedro de ycuamandiyu,-24.0917,-57.0764,19.56,87,0,1.69,PY,1691633861
357,cantley,53.5,-1.05,20.01,86,100,0.96,GB,1691633861
358,patnanungan,14.7833,122.1833,29.94,71,49,4.2,PH,1691633861
359,kamaishi,39.2667,141.8833,27.9,76,22,6.79,JP,1691633861
360,gizo,-8.103,156.8419,26.5,81,100,9.7,SB,1691633862
361,malanje,-9.5402,16.341,17.77,56,31,1.39,AO,1691633863
362,thinadhoo,0.5333,72.9333,27.52,76,99,4.2,MV,1691633863
363,kununurra,-15.7667,128.7333,29.99,25,33,4.63,AU,1691633863
364,camacupa,-12.0167,17.4833,14.7,37,7,0.56,AO,1691633863
365,cestos city,5.46,-9.5828,24.63,85,100,5.76,LR,1691633863
366,mount darwin,-16.7725,31.5838,8.69,84,0,1.77,ZW,1691633863
367,nar'yan-mar,67.6713,53.087,12.0,81,0,2.6,RU,1691633863
368,tenenkou,14.4572,-4.9169,28.2,61,100,5.89,ML,1691633863
369,tonder,54.9331,8.8667,15.02,81,100,6.69,DK,1691633863
370,isabela,6.7085,121.9711,28.03,66,100,3.53,PH,1691633863
371,tucurui,-3.7661,-49.6725,23.49,88,23,1.72,BR,1691633863
372,masallatah,32.6167,14.0,21.27,81,0,1.64,LY,1691633864
373,bikaner,28.0167,73.3,28.49,67,96,7.77,IN,1691633864
374,karratha,-20.7377,116.8463,26.01,32,44,3.96,AU,1691633864
375,miyaly,48.8844,53.7836,21.55,57,0,4.76,KZ,1691633864
376,port lincoln,-34.7333,135.8667,14.52,56,32,3.86,AU,1691633864
377,barreiras,-12.1528,-44.99,24.04,43,77,1.28,BR,1691633864
378,ardakan,32.31,54.0175,27.02,24,0,3.08,IR,1691633864
379,ust-tsilma,65.441,52.1498,15.96,82,1,1.17,RU,1691633864
380,zhanaozen,43.3,52.8,28.48,37,2,2.0,KZ,1691633864
381,broken hill,-31.95,141.4333,14.69,44,2,5.12,AU,1691633864
382,horta,38.5333,-28.6333,21.12,86,100,2.68,PT,1691633864
383,chatillon-sur-seine,47.8585,4.5738,11.59,92,0,1.86,FR,1691633864
384,chernyshevsk,52.5243,117.0174,21.19,46,100,2.81,RU,1691633865
385,meridian,43.6121,-116.3915,31.31,36,0,3.6,US,1691633865
386,quelimane,-17.8786,36.8883,17.97,94,75,0.0,MZ,1691633865
387,klyuchi,52.2667,79.1667,21.58,45,81,2.41,RU,1691633865
388,arraial do cabo,-22.9661,-42.0278,20.86,85,41,8.07,BR,1691633865
389,byron bay,-28.65,153.6167,22.62,44,0,3.68,AU,1691633865
390,corn island,12.1694,-83.0418,28.42,81,82,4.31,NI,1691633865
391,massawa,15.6097,39.45,33.7,58,100,1.15,ER,1691633865
392,bamboo flat,11.7,92.7167,29.05,84,40,4.12,IN,1691633865
393,fada,9.5667,8.3,19.19,99,75,1.17,NG,1691633865
394,narasannapeta,18.4167,84.05,29.02,66,63,2.31,IN,1691633463
395,buala,-8.145,159.5921,26.67,85,100,5.68,SB,1691633865
396,fortaleza,-3.7227,-38.5247,26.79,78,20,2.57,BR,1691633866
397,vung tau,10.346,107.0843,28.45,77,69,5.27,VN,1691633866
398,kingscliff,-28.2667,153.5667,23.3,56,0,6.69,AU,1691633866
399,east london,-33.0153,27.9116,16.33,81,6,7.54,ZA,1691633866
400,carutapera,-1.195,-46.02,24.68,88,21,3.02,BR,1691633866
401,ambalavao,-21.8333,46.9333,12.0,94,1,0.91,MG,1691633866
402,mili,6.0815,171.735,27.78,74,48,1.15,MH,1691633866
403,talnakh,69.4865,88.3972,13.45,56,100,2.11,RU,1691633866
404,tayoltita,24.0833,-105.9333,21.09,86,99,1.96,MX,1691633866
405,naze,28.3667,129.4833,28.51,79,14,5.52,JP,1691633662
406,dzhalagash,45.0833,64.6667,26.62,44,0,3.03,KZ,1691633866
407,puerto santa,-8.9906,-78.6456,19.72,83,30,5.11,PE,1691633867
408,mont-tremblant,46.1949,-74.6264,18.54,94,21,0.51,CA,1691633867
409,holalkere,14.0333,76.1833,21.56,90,100,5.05,IN,1691633867
410,reo,12.3167,-2.4667,23.96,90,100,3.61,BF,1691633867
411,moultonborough,43.7548,-71.3967,20.0,87,2,1.73,US,1691633867
412,adrar,20.5022,-10.0711,34.04,10,0,3.77,MR,1691633867
413,zouerate,22.7187,-12.4521,30.63,36,0,4.6,MR,1691633867
414,san-pedro,4.7485,-6.6363,23.51,89,100,3.96,CI,1691633867
415,meiktila,20.8667,95.8667,24.44,85,100,6.45,MM,1691633867
416,bibbiena,43.6965,11.8135,17.27,68,100,0.58,IT,1691633867
417,muisne,0.6,-80.0333,25.66,84,100,3.66,EC,1691633867
418,mananjary,-21.2167,48.3333,18.56,91,43,1.35,MG,1691633867
419,ts'alenjikha,42.6044,42.0682,24.47,82,70,0.79,GE,1691633868
420,bulandshahr,28.4,77.85,29.3,70,61,1.5,IN,1691633868
421,fraserburgh,57.6874,-2.0184,12.29,78,97,2.7,GB,1691633868
422,suntar,62.1444,117.6319,26.02,47,26,3.87,RU,1691633868
423,sheregesh,52.9209,87.9869,16.5,78,71,1.43,RU,1691633868
424,nuuk,64.1835,-51.7216,4.34,100,100,5.81,GL,1691633868
425,pimentel,-6.8367,-79.9342,22.16,83,75,6.17,PE,1691633868
426,tra mhor,52.1624,-7.1524,17.01,85,38,3.13,IE,1691633868
427,rosignol,6.2833,-57.5333,26.84,80,12,4.01,GY,1691633868
428,pozo del molle,-32.0186,-62.9198,13.93,79,100,3.7,AR,1691633868
429,santa terezinha,-29.9002,-50.0904,16.09,96,100,6.57,BR,1691633868
430,ghanzi,-21.5667,21.7833,11.08,38,0,7.84,BW,1691633868
431,al qusiyah,27.4402,30.8184,25.15,41,0,4.36,EG,1691633869
432,ciudad bolivar,8.1222,-63.5497,24.67,87,100,3.2,VE,1691633869
433,trinity beach,-16.7888,145.6968,26.12,74,100,5.66,AU,1691633869
434,kailua-kona,19.6406,-155.9956,29.98,71,40,4.12,US,1691633644
435,sao vicente,-23.9631,-46.3919,22.1,26,98,2.26,BR,1691633869
436,port moresby,-9.4431,147.1797,29.68,51,20,10.29,PG,1691633869
437,magdagachi,53.45,125.8,25.65,43,16,1.66,RU,1691633869
438,aromashevo,56.8602,68.6375,15.16,94,100,4.08,RU,1691633869
439,medinipur,22.4333,87.3333,29.49,69,34,2.2,IN,1691633869
440,ghadamis,30.1337,9.5007,28.32,28,0,4.58,LY,1691633869
441,nuku'alofa,-21.1333,-175.2,24.19,83,75,4.12,TO,1691633869
442,badou,7.5833,0.6,21.29,97,100,2.35,TG,1691633870
443,pljevlja,43.3333,19.3333,10.56,94,91,1.21,ME,1691633550
444,casper,42.8666,-106.3131,22.33,40,0,3.6,US,1691633615
445,miquelon,47.0975,-56.3814,15.0,92,100,17.18,PM,1691633870
446,antofagasta,-23.65,-70.4,17.6,89,86,2.8,CL,1691633764
447,tweed heads,-28.1817,153.547,23.45,56,0,6.69,AU,1691633870
448,tayu,-6.5397,111.0518,26.76,64,87,4.06,ID,1691633870
449,lethem,3.3803,-59.7968,26.89,68,99,1.98,GY,1691633870
450,beroroha,-21.6667,45.1667,17.86,83,0,1.64,MG,1691633870
451,chumphon,10.3333,98.8333,25.79,81,92,2.58,TH,1691633870
452,matehuala,23.65,-100.65,26.91,39,11,4.15,MX,1691633870
453,umm kaddadah,13.6017,26.6876,26.98,65,47,4.57,SD,1691633870
454,mariehamn,60.0973,19.9348,14.34,82,75,5.66,AX,1691633870
455,wotho,10.1657,166.0102,28.42,74,59,4.53,MH,1691633870
456,prince rupert,54.3161,-130.3201,15.05,97,100,6.17,CA,1691633871
457,conceicao da barra,-18.5933,-39.7322,21.31,83,8,1.67,BR,1691633871
458,pokrovskoye,47.4157,38.8971,22.59,67,100,4.0,RU,1691633871
459,aswan,24.0934,32.907,32.61,27,0,4.12,EG,1691633871
460,alofi,-19.0595,-169.9187,27.94,74,40,2.57,NU,1691633721
461,tazacorte,28.629,-17.9293,23.54,91,0,5.66,ES,1691633871
462,tual,-5.6667,132.75,25.65,80,72,9.62,ID,1691633871
463,vredefort,-27.0081,27.3646,7.31,76,0,3.82,ZA,1691633871
464,katsuren-haebaru,26.3369,127.8719,31.43,81,40,2.57,JP,1691633871
465,iyo,33.7514,132.7014,32.45,62,75,4.63,JP,1691633871
466,nanao,37.05,136.9667,37.88,54,13,1.68,JP,1691633871
467,jamaame,0.0697,42.745,22.88,87,94,3.53,SO,1691633871
468,ha tinh,18.3333,105.9,30.7,62,66,2.82,VN,1691633872
469,yanam,16.7333,82.2167,29.6,67,91,2.31,IN,1691633872
470,mount pearl,47.5166,-52.7813,12.75,93,100,6.17,CA,1691633872
471,monifieth,56.4832,-2.8272,15.93,88,100,3.09,GB,1691633872
472,tosontsengel,48.7567,98.2839,15.23,73,39,3.22,MN,1691633872
473,levuka,50.1834,-105.4011,13.9,64,80,6.21,CA,1691633872
474,makokou,0.5738,12.8642,21.56,89,100,0.88,GA,1691633872
475,fort bragg,35.139,-79.006,26.62,75,0,0.0,US,1691633872
476,yuxia,34.0615,108.6291,29.34,70,20,1.71,CN,1691633872
477,quiberon,47.4841,-3.1196,21.17,88,63,1.79,FR,1691633872
478,kuala tungkal,-0.8167,103.4667,27.47,71,100,2.69,ID,1691633872
479,cidade velha,14.9167,-23.6167,26.26,69,20,5.14,CV,1691633872
480,puerto quijarro,-17.7833,-57.7667,26.81,45,0,1.04,BO,1691633873
481,auki,-8.7676,160.7034,26.41,88,100,5.52,SB,1691633873
482,kokologo,12.1897,-1.8856,21.92,92,100,2.82,BF,1691633873
483,zhytkavichy,52.2168,27.8561,13.99,70,100,2.1,BY,1691633873
484,kudat,6.8837,116.8477,31.96,66,20,4.12,MY,1691633873
485,youghal,51.95,-7.8506,16.97,100,34,5.4,IE,1691633873
486,machico,32.7,-16.7667,24.35,81,40,4.12,PT,1691633873
487,grande prairie,55.1667,-118.8027,19.1,68,75,3.09,CA,1691633873
488,salinas,36.6777,-121.6555,19.99,81,100,4.12,US,1691633807
489,dabakala,8.3667,-4.4333,22.14,97,100,3.47,CI,1691633873
490,pierre,44.3683,-100.351,27.14,54,0,3.09,US,1691633873
491,maumere,-8.6199,122.2111,27.03,59,42,1.55,ID,1691633873
492,tralee,52.2704,-9.7026,15.49,91,20,3.91,IE,1691633677
493,macapa,0.0389,-51.0664,27.99,89,75,4.12,BR,1691633699
494,brush,40.2589,-103.6238,22.62,64,0,3.09,US,1691633874
495,valdez,1.2492,-78.9831,26.11,84,96,3.68,EC,1691633776
496,rongelap,11.1635,166.8941,28.26,75,13,4.62,MH,1691633874
497,princeville,45.7668,-61.2985,19.31,97,100,2.57,CA,1691633874
498,kashiwazaki,37.3667,138.55,38.27,43,0,5.29,JP,1691633874
499,kalevala,65.2,31.1667,17.6,91,100,2.87,RU,1691633874
500,ghardaia,32.4909,3.6735,29.64,19,0,0.0,DZ,1691633874
501,ningde,26.6617,119.5228,30.33,81,95,1.24,CN,1691633874
502,antonio enes,-16.2325,39.9086,21.18,80,15,4.12,MZ,1691633874
503,nichinan,31.6,131.3667,29.82,85,98,6.01,JP,1691633874
504,vilyuysk,63.7553,121.6247,23.4,37,0,5.13,RU,1691633874
505,jabat,7.75,168.9751,28.21,76,100,5.13,MH,1691633874
506,intendente alvear,-35.2338,-63.592,12.77,66,95,5.57,AR,1691633874
507,presidente medici,-11.1753,-61.9014,30.06,39,74,1.36,BR,1691633875
508,laplace,30.0666,-90.4801,31.99,76,0,4.63,US,1691633875
509,phillip island,-38.4835,145.231,14.02,89,7,10.97,AU,1691633875
510,kamina,-8.7386,24.9906,16.6,42,91,1.57,CD,1691633875
511,constantia,44.1833,28.65,18.38,71,65,6.57,RO,1691633875
512,happy valley-goose bay,53.3168,-60.3315,16.17,77,100,2.06,CA,1691633875
513,port augusta,-32.5,137.7667,15.44,52,0,4.0,AU,1691633875
514,sao felix do xingu,-6.6447,-51.995,27.93,53,96,0.96,BR,1691633764
515,banda aceh,5.5577,95.3222,28.65,69,77,4.89,ID,1691633875
516,bayganin,48.6947,55.8742,18.48,74,0,5.9,KZ,1691633875
517,myrina,39.8797,25.0742,22.58,60,0,4.12,GR,1691633875
518,susuman,62.7833,148.1667,14.32,49,6,1.11,RU,1691633875
519,egilsstadir,65.2653,-14.3948,6.95,81,75,1.03,IS,1691633876
520,santa cruz,-17.8,-63.1667,23.7,73,0,3.6,BO,1691633482
521,tismana,45.05,22.9667,17.14,66,100,1.18,RO,1691633876
522,south cleveland,35.1412,-84.8722,21.53,96,0,1.54,US,1691633876
523,champerico,14.3,-91.9167,28.29,77,60,2.14,GT,1691633876
524,lionel town,17.8101,-77.2406,26.84,87,14,1.59,JM,1691633876
525,trincomalee,8.5711,81.2335,27.78,71,100,7.33,LK,1691633876
526,zibo,36.7906,118.0633,29.93,57,0,3.56,CN,1691633876
527,sal'sk,46.4725,41.5428,23.55,70,62,3.29,RU,1691633876
528,tuy hoa,13.0833,109.3,33.62,49,6,5.04,VN,1691633876
529,pulandian,39.3953,121.9669,28.76,51,0,8.11,CN,1691633876
530,vilhena,-12.7406,-60.1458,24.12,41,35,1.76,BR,1691633876
531,tanumah,27.1,44.1333,30.26,12,0,4.54,SA,1691633876
532,lorengau,-2.0226,147.2712,28.49,75,100,7.27,PG,1691633877
533,beckley,37.7782,-81.1882,20.23,90,0,2.06,US,1691633866
534,san ignacio de velasco,-16.3667,-60.95,26.31,41,24,1.18,BO,1691633877
535,berdigestyakh,62.0989,126.6992,23.07,43,2,4.53,RU,1691633877
536,balykshi,47.0667,51.8667,22.0,46,0,3.0,KZ,1691633877
537,pacific grove,36.6177,-121.9166,18.9,86,75,3.6,US,1691633735
538,nelson,-41.2833,173.2833,4.84,85,98,1.02,NZ,1691633543
539,port-vila,-17.7338,168.3219,23.78,57,75,5.14,VU,1691633877
540,lewistown,40.5992,-77.5714,22.67,73,0,0.0,US,1691633877
541,motygino,58.1831,94.7592,16.69,82,100,1.72,RU,1691633877
542,palikir - national government center,6.9248,158.1611,29.47,79,100,2.57,FM,1691633877
543,kampene,-3.6,26.6667,21.92,51,28,0.57,CD,1691633877
544,tiruchchendur,8.4833,78.1167,29.16,70,100,0.72,IN,1691633877
545,bandar lampung,-5.4254,105.258,27.23,75,11,1.98,ID,1691633877
546,grootfontein,-19.5667,18.1167,14.12,26,65,4.08,NA,1691633878
547,fort wellington,6.4,-57.6,27.41,79,23,5.8,GY,1691633878
548,corsicana,32.0954,-96.4689,37.01,39,0,4.12,US,1691633878
549,purpe,64.4803,76.6897,10.38,87,100,8.58,RU,1691633878
550,muli,2.9167,73.5667,27.23,76,100,5.37,MV,1691633878
551,mumford,5.2618,-0.759,23.7,88,100,4.75,GH,1691633878
552,el granada,37.5027,-122.4694,25.58,80,100,7.72,US,1691633878
553,kavaratti,10.5669,72.642,27.57,79,100,7.7,IN,1691633878
554,la paz,-16.5,-68.15,9.21,53,12,2.06,BO,1691633702
555,guasdualito,7.2424,-70.7324,26.98,94,20,0.0,VE,1691633878
556,maunabo,18.0072,-65.8993,29.43,88,100,4.99,PR,1691633878
557,bizhbulyak,53.6967,54.2642,17.38,69,0,2.19,RU,1691633878
558,vila franca do campo,37.7167,-25.4333,23.23,94,99,3.79,PT,1691633878
559,mahanoro,-19.9,48.8,18.84,92,75,1.49,MG,1691633879
560,piechowice,50.8496,15.5989,12.77,90,83,1.1,PL,1691633879
561,brezina,33.0989,1.2608,29.31,24,0,2.53,DZ,1691633879
562,olinda,-8.0089,-34.8553,25.85,73,40,6.69,BR,1691633879
563,rouached,36.4577,6.0427,16.5,45,0,0.75,DZ,1691633879
564,ialibu,-6.2821,143.9935,16.02,83,98,1.71,PG,1691633879
565,al jawf,29.5,38.75,28.28,27,0,3.38,SA,1691633879
566,celestun,20.8667,-90.4,28.6,79,56,6.67,MX,1691633879
567,taulaga,-11.0553,-171.0883,27.97,79,76,6.77,AS,1691633879
568,greymouth,-42.4667,171.2,8.75,47,0,2.13,NZ,1691633879
569,midvagur,62.0511,-7.1939,8.46,87,100,0.0,FO,1691633879
570,bontang,0.1333,117.5,28.34,71,90,3.24,ID,1691633879
571,mulanje,-16.0316,35.5,14.21,97,41,2.32,MW,1691633879
572,embi,48.8264,58.1442,17.78,76,0,6.21,KZ,1691633880
573,mulayjah,27.271,48.4242,31.71,37,0,2.45,SA,1691633880
574,salinopolis,-0.6136,-47.3561,25.87,85,49,5.31,BR,1691633880
575,lawas,13.764,121.0566,31.66,73,59,6.18,PH,1691633880
576,kyzylorda,44.8528,65.5092,25.01,47,0,2.0,KZ,1691633880
577,nema,57.5067,50.5011,17.03,81,27,1.71,RU,1691633880
578,brookings,44.3114,-96.7984,23.19,79,0,0.0,US,1691633741
579,remire-montjoly,4.9167,-52.2667,26.02,89,0,2.06,GF,1691633880
580,antsiranana,-12.2787,49.2917,19.75,85,0,2.16,MG,1691633880
581,xinyuan,37.3,99.0,12.65,84,100,0.63,CN,1691633880
582,newnham,-41.3833,147.1333,15.53,63,40,4.12,AU,1691633880
583,ad dabbah,18.05,30.95,31.86,45,97,4.51,SD,1691633880
584,tabora,-5.0167,32.8,17.86,63,4,2.67,TZ,1691633880
585,mirny,62.5353,113.9611,20.69,64,83,4.02,RU,1691633881
586,brisas de zicatela,15.8369,-97.0419,29.29,58,40,0.0,MX,1691633881
587,san juan de miraflores,-12.1629,-76.9635,20.29,80,33,4.48,PE,1691633881
588,salalah,17.0151,54.0924,24.17,96,100,2.49,OM,1691633881
589,yambio,4.5721,28.3955,19.04,98,49,1.39,SS,1691633881
590,kittila,67.6647,24.8936,16.08,94,100,0.51,FI,1691633881
591,nadym,65.5333,72.5167,8.7,75,100,10.54,RU,1691633881
592,papao,-17.75,-149.55,26.82,73,100,7.34,PF,1691633881
593,krasnogvardeyskoye,45.8456,41.5186,22.67,77,18,4.01,RU,1691633881
594,bardsir,29.9227,56.5743,20.86,32,7,2.5,IR,1691633881
595,at taj,24.2049,23.2857,29.45,30,3,4.36,LY,1691633882
596,morpeth,55.1676,-1.6912,16.13,100,40,1.54,GB,1691633882
597,rumonge,-3.9736,29.4386,22.42,54,2,1.11,BI,1691633595
598,kirensk,57.7853,108.1119,17.81,93,100,1.22,RU,1691633882
599,constitucion,-35.3333,-72.4167,11.82,97,100,7.31,CL,1691633882
600,morant bay,17.8815,-76.4093,28.73,86,6,2.42,JM,1691633882
601,plouzane,48.3833,-4.6167,19.18,97,57,2.57,FR,1691633882
602,filadelfia,39.9523,-75.1638,25.95,69,40,3.6,US,1691633752
603,puerto madryn,-42.7692,-65.0385,15.78,42,83,8.33,AR,1691633481
604,barra dos coqueiros,-10.9089,-37.0386,24.01,78,100,4.12,BR,1691633794
605,jayapura,-2.5333,140.7,32.66,69,20,2.89,ID,1691633883
606,kendari,-3.945,122.4989,26.56,75,95,1.51,ID,1691633883
607,sainte-agathe-des-monts,46.0501,-74.2825,18.44,86,12,1.35,CA,1691633344
608,kavieng,-2.5744,150.7967,28.49,74,99,7.16,PG,1691633883
609,chauk,20.8833,94.8167,24.91,89,100,5.79,MM,1691633883
610,pakse,15.1167,105.7833,27.08,89,40,2.06,LA,1691633883
611,damghan,36.1683,54.348,22.98,28,0,2.05,IR,1691633883
612,chita,52.0333,113.55,18.94,94,75,0.0,RU,1691633779
613,posse,-14.0931,-46.3694,22.26,45,0,4.15,BR,1691633883
614,villa yapacani,-17.4,-63.8333,22.83,62,6,1.42,BO,1691633884
